{"type":"FeatureCollection","features":[{"type":"Feature","properties":{"name":"Ainslie","gov":0.660639193,"votes":2378,"swing":-0.0000498116},"geometry":{"type":"Point","coordinates":[149.14001,-35.27363]}},{"type":"Feature","properties":{"name":"Ainslie North","gov":0.684439179,"votes":2532,"swing":0.012439179},"geometry":{"type":"Point","coordinates":[149.147,-35.2543]}},{"type":"Feature","properties":{"name":"Amaroo","gov":0.520644512,"votes":1986,"swing":0.084301919},"geometry":{"type":"Point","coordinates":[149.129,-35.1653]}},{"type":"Feature","properties":{"name":"Aranda","gov":0.587601078,"votes":2226,"swing":-0.052335405},"geometry":{"type":"Point","coordinates":[149.08,-35.256]}},{"type":"Feature","properties":{"name":"Belconnen","gov":0.593206951,"votes":2532,"swing":0.064848742},"geometry":{"type":"Point","coordinates":[149.069655,-35.2389303]}},{"type":"Feature","properties":{"name":"Bonython","gov":0.426837973,"votes":1401,"swing":-0.039337513},"geometry":{"type":"Point","coordinates":[149.083,-35.4318]}},{"type":"Feature","properties":{"name":"Calwell","gov":0.37713998,"votes":1986,"swing":-0.078878539},"geometry":{"type":"Point","coordinates":[149.1176,-35.44067]}},{"type":"Feature","properties":{"name":"Campbell","gov":0.469786461,"votes":2201,"swing":0.041413078},"geometry":{"type":"Point","coordinates":[149.156,-35.2903]}},{"type":"Feature","properties":{"name":"Chapman","gov":0.423913043,"votes":2392,"swing":-0.077679313},"geometry":{"type":"Point","coordinates":[149.042,-35.3564]}},{"type":"Feature","properties":{"name":"Charnwood","gov":0.467544685,"votes":2126,"swing":0.008992053},"geometry":{"type":"Point","coordinates":[149.03,-35.2051]}},{"type":"Feature","properties":{"name":"Charnwood North","gov":0.511730205,"votes":682,"swing":-0.014281355},"geometry":{"type":"Point","coordinates":[149.0370964,-35.1954335]}},{"type":"Feature","properties":{"name":"Chisholm","gov":0.372812921,"votes":1486,"swing":-0.024784677},"geometry":{"type":"Point","coordinates":[149.1225386,-35.4195217]}},{"type":"Feature","properties":{"name":"City","gov":0.670063694,"votes":1570,"swing":0.058333924},"geometry":{"type":"Point","coordinates":[149.1290814,-35.2767018]}},{"type":"Feature","properties":{"name":"Conder","gov":0.390308039,"votes":2662,"swing":-0.011739743},"geometry":{"type":"Point","coordinates":[149.092544,-35.457536]}},{"type":"Feature","properties":{"name":"Curtin","gov":0.523305085,"votes":2360,"swing":-0.053587968},"geometry":{"type":"Point","coordinates":[149.0803543,-35.3314386]}},{"type":"Feature","properties":{"name":"Deakin","gov":0.322603219,"votes":1429,"swing":-0.066437877},"geometry":{"type":"Point","coordinates":[149.111,-35.3125]}},{"type":"Feature","properties":{"name":"Downer","gov":0.680436477,"votes":1283,"swing":0.011432269},"geometry":{"type":"Point","coordinates":[149.145,-35.2445]}},{"type":"Feature","properties":{"name":"Duffy","gov":0.502254791,"votes":1774,"swing":-0.051267116},"geometry":{"type":"Point","coordinates":[149.032,-35.3347]}},{"type":"Feature","properties":{"name":"Evatt","gov":0.486738018,"votes":2149,"swing":-0.005937387},"geometry":{"type":"Point","coordinates":[149.076,-35.2071]}},{"type":"Feature","properties":{"name":"Evatt South","gov":0.540983607,"votes":976,"swing":0.038083855},"geometry":{"type":"Point","coordinates":[149.067,-35.2133]}},{"type":"Feature","properties":{"name":"Fadden","gov":0.365106875,"votes":1731,"swing":-0.025112686},"geometry":{"type":"Point","coordinates":[149.118,-35.4044]}},{"type":"Feature","properties":{"name":"Farrer","gov":0.3971843,"votes":2344,"swing":-0.046557227},"geometry":{"type":"Point","coordinates":[149.107,-35.379]}},{"type":"Feature","properties":{"name":"Florey","gov":0.511553273,"votes":1558,"swing":-0.000959761},"geometry":{"type":"Point","coordinates":[149.041,-35.224]}},{"type":"Feature","properties":{"name":"Forde","gov":0.545518701,"votes":1417,"swing":0.147220829},"geometry":{"type":"Point","coordinates":[149.143181,-35.1708975]}},{"type":"Feature","properties":{"name":"Fraser","gov":0.485175202,"votes":2226,"swing":0.020767132},"geometry":{"type":"Point","coordinates":[149.043,-35.1918]}},{"type":"Feature","properties":{"name":"Garran","gov":0.45033557,"votes":1490,"swing":-0.050803382},"geometry":{"type":"Point","coordinates":[149.1007821,-35.3459732]}},{"type":"Feature","properties":{"name":"Gilmore","gov":0.3502331,"votes":1716,"swing":-0.055158558},"geometry":{"type":"Point","coordinates":[149.133,-35.4147]}},{"type":"Feature","properties":{"name":"Giralang","gov":0.485593816,"votes":1423,"swing":-0.034406184},"geometry":{"type":"Point","coordinates":[149.094,-35.2137]}},{"type":"Feature","properties":{"name":"Gordon","gov":0.393114241,"votes":3195,"swing":-0.006781619},"geometry":{"type":"Point","coordinates":[149.0901681,-35.4397627]}},{"type":"Feature","properties":{"name":"Gowrie","gov":0.393333333,"votes":1650,"swing":-0.014197121},"geometry":{"type":"Point","coordinates":[149.111,-35.4136]}},{"type":"Feature","properties":{"name":"Griffith","gov":0.454380665,"votes":1655,"swing":-0.018906576},"geometry":{"type":"Point","coordinates":[149.145,-35.3222]}},{"type":"Feature","properties":{"name":"Gungahlin","gov":0.566520176,"votes":2503,"swing":0.079687436},"geometry":{"type":"Point","coordinates":[149.131182,-35.182273]}},{"type":"Feature","properties":{"name":"Hall","gov":0.453531599,"votes":269,"swing":0.042210844},"geometry":{"type":"Point","coordinates":[149.069322,-35.167529]}},{"type":"Feature","properties":{"name":"Harrison","gov":0.594196223,"votes":2171,"swing":0.130407254},"geometry":{"type":"Point","coordinates":[149.150554,-35.19939]}},{"type":"Feature","properties":{"name":"Holder","gov":0.442269076,"votes":1992,"swing":-0.058819063},"geometry":{"type":"Point","coordinates":[149.05,-35.3348]}},{"type":"Feature","properties":{"name":"Holt","gov":0.508750994,"votes":2514,"swing":0.000825193},"geometry":{"type":"Point","coordinates":[149.02497,-35.22694]}},{"type":"Feature","properties":{"name":"Hughes","gov":0.453427065,"votes":1707,"swing":-0.103378937},"geometry":{"type":"Point","coordinates":[149.0910366,-35.332175]}},{"type":"Feature","properties":{"name":"Isabella Plains","gov":0.40010917,"votes":1832,"swing":-0.035839191},"geometry":{"type":"Point","coordinates":[149.089,-35.4287]}},{"type":"Feature","properties":{"name":"Kaleen","gov":0.491361789,"votes":1968,"swing":-0.027852185},"geometry":{"type":"Point","coordinates":[149.114,-35.2248]}},{"type":"Feature","properties":{"name":"Kaleen South","gov":0.544955388,"votes":1457,"swing":0.042994603},"geometry":{"type":"Point","coordinates":[149.102,-35.2351]}},{"type":"Feature","properties":{"name":"Kambah North","gov":0.46201232,"votes":1461,"swing":-0.000538287},"geometry":{"type":"Point","coordinates":[149.065,-35.3784]}},{"type":"Feature","properties":{"name":"Kambah South","gov":0.479289941,"votes":1859,"swing":-0.014868432},"geometry":{"type":"Point","coordinates":[149.067537,-35.3924756]}},{"type":"Feature","properties":{"name":"Kambah West","gov":0.466822795,"votes":2562,"swing":-0.005188263},"geometry":{"type":"Point","coordinates":[149.053,-35.3806]}},{"type":"Feature","properties":{"name":"Latham","gov":0.494654312,"votes":1403,"swing":-0.013629711},"geometry":{"type":"Point","coordinates":[149.034,-35.2202]}},{"type":"Feature","properties":{"name":"Lyneham","gov":0.694965743,"votes":3357,"swing":0.007465743},"geometry":{"type":"Point","coordinates":[149.1307017,-35.2524845]}},{"type":"Feature","properties":{"name":"Lyons","gov":0.521489971,"votes":1047,"swing":-0.064103249},"geometry":{"type":"Point","coordinates":[149.076,-35.342]}},{"type":"Feature","properties":{"name":"Macgregor","gov":0.525339367,"votes":2210,"swing":0.039105115},"geometry":{"type":"Point","coordinates":[149.012,-35.2131]}},{"type":"Feature","properties":{"name":"Macquarie","gov":0.545392022,"votes":1454,"swing":-0.037737562},"geometry":{"type":"Point","coordinates":[149.059,-35.2501]}},{"type":"Feature","properties":{"name":"Mawson","gov":0.451890857,"votes":2089,"swing":-0.062932861},"geometry":{"type":"Point","coordinates":[149.097,-35.3585]}},{"type":"Feature","properties":{"name":"Melba","gov":0.52016129,"votes":1984,"swing":-0.019213985},"geometry":{"type":"Point","coordinates":[149.056,-35.2083]}},{"type":"Feature","properties":{"name":"Monash","gov":0.401197605,"votes":2004,"swing":-0.054444083},"geometry":{"type":"Point","coordinates":[149.089,-35.4151]}},{"type":"Feature","properties":{"name":"Narrabundah","gov":0.532222222,"votes":1800,"swing":-0.046038647},"geometry":{"type":"Point","coordinates":[149.15,-35.3286]}},{"type":"Feature","properties":{"name":"Ngunnawal","gov":0.56056338,"votes":2840,"swing":0.090825833},"geometry":{"type":"Point","coordinates":[149.112,-35.1692]}},{"type":"Feature","properties":{"name":"Nicholls","gov":0.421510724,"votes":3217,"swing":0.039679114},"geometry":{"type":"Point","coordinates":[149.100229,-35.182043]}},{"type":"Feature","properties":{"name":"Oaks Estate","gov":0.422764228,"votes":246,"swing":-0.06441526},"geometry":{"type":"Point","coordinates":[149.230606,-35.342222]}},{"type":"Feature","properties":{"name":"Page","gov":0.533410138,"votes":1736,"swing":-0.001125944},"geometry":{"type":"Point","coordinates":[149.042,-35.2398]}},{"type":"Feature","properties":{"name":"Palmerston","gov":0.557522124,"votes":2599,"swing":0.103736913},"geometry":{"type":"Point","coordinates":[149.12,-35.1975]}},{"type":"Feature","properties":{"name":"Pearce","gov":0.431389365,"votes":2332,"swing":-0.082124148},"geometry":{"type":"Point","coordinates":[149.089,-35.3637]}},{"type":"Feature","properties":{"name":"Red Hill","gov":0.455653636,"votes":2379,"swing":-0.009776381},"geometry":{"type":"Point","coordinates":[149.133,-35.3395]}},{"type":"Feature","properties":{"name":"Richardson","gov":0.401030169,"votes":1359,"swing":-0.033116172},"geometry":{"type":"Point","coordinates":[149.114,-35.4287]}},{"type":"Feature","properties":{"name":"Scullin","gov":0.579310345,"votes":1160,"swing":0.029131133},"geometry":{"type":"Point","coordinates":[149.0384031,-35.2325569]}},{"type":"Feature","properties":{"name":"Tharwa","gov":0.376811594,"votes":138,"swing":0.010957936},"geometry":{"type":"Point","coordinates":[149.068,-35.5088]}},{"type":"Feature","properties":{"name":"Theodore","gov":0.400133156,"votes":1502,"swing":-0.013455235},"geometry":{"type":"Point","coordinates":[149.124,-35.4477]}},{"type":"Feature","properties":{"name":"Tuggeranong","gov":0.417786308,"votes":1563,"swing":-0.046010169},"geometry":{"type":"Point","coordinates":[149.068781,-35.416611]}},{"type":"Feature","properties":{"name":"Turner","gov":0.704545455,"votes":2112,"swing":0.031643533},"geometry":{"type":"Point","coordinates":[149.126,-35.265]}},{"type":"Feature","properties":{"name":"Wanniassa","gov":0.421637427,"votes":1710,"swing":-0.043224871},"geometry":{"type":"Point","coordinates":[149.086,-35.3947]}},{"type":"Feature","properties":{"name":"Wanniassa Hills","gov":0.426453144,"votes":1686,"swing":-0.049005458},"geometry":{"type":"Point","coordinates":[149.096,-35.392]}},{"type":"Feature","properties":{"name":"Waramanga","gov":0.497810858,"votes":2284,"swing":-0.027200016},"geometry":{"type":"Point","coordinates":[149.06,-35.355]}},{"type":"Feature","properties":{"name":"Watson","gov":0.691737681,"votes":2699,"swing":0.034043974},"geometry":{"type":"Point","coordinates":[149.155,-35.2385]}},{"type":"Feature","properties":{"name":"Weetangera","gov":0.505617978,"votes":1869,"swing":-0.040385039},"geometry":{"type":"Point","coordinates":[149.047,-35.2518]}},{"type":"Feature","properties":{"name":"Weston","gov":0.500593824,"votes":1684,"swing":-0.05222085},"geometry":{"type":"Point","coordinates":[149.052033,-35.341921]}},{"type":"Feature","properties":{"name":"Woden","gov":0.539412674,"votes":647,"swing":-0.017912167},"geometry":{"type":"Point","coordinates":[149.088239,-35.345929]}},{"type":"Feature","properties":{"name":"Yarralumla","gov":0.401126408,"votes":1598,"swing":-0.088512432},"geometry":{"type":"Point","coordinates":[149.103,-35.3069]}}]}